{
  "locations": [
    {
      "name": "Abu Dhabi International Airport",
      "country": "AE",
      "iata_code": "AUH",
      "latitude": 24.433000564575195,
      "longitude": 54.651100158691406,
      "type": "large_airport"
    },
    {
      "name": "Dubai International Airport",
      "country": "AE",
      "iata_code": "DXB",
      "latitude": 25.2527999878,
      "longitude": 55.3643989563,
      "type": "large_airport"
    },
    {
      "name": "Al Maktoum International Airport",
      "country": "AE",
      "iata_code": "DWC",
      "latitude": 24.896356,
      "longitude": 55.161389,
      "type": "large_airport"
    },
    {
      "name": "Sharjah International Airport",
      "country": "AE",
      "iata_code": "SHJ",
      "latitude": 25.32859992980957,
      "longitude": 55.5172004699707,
      "type": "large_airport"
    },
    {
      "name": "Tirana International Airport Mother Teresa",
      "country": "AL",
      "iata_code": "TIA",
      "latitude": 41.4146995544,
      "longitude": 19.7206001282,
      "type": "large_airport"
    },
    {
      "name": "Zvartnots International Airport",
      "country": "AM",
      "iata_code": "EVN",
      "latitude": 40.1473007202,
      "longitude": 44.3959007263,
      "type": "large_airport"
    },
    {
      "name": "Quatro de Fevereiro Airport",
      "country": "AO",
      "iata_code": "LAD",
      "latitude": -8.85837,
      "longitude": 13.2312,
      "type": "large_airport"
    },
    {
      "name": "Ministro Pistarini International Airport",
      "country": "AR",
      "iata_code": "EZE",
      "latitude": -34.8222,
      "longitude": -58.5358,
      "type": "large_airport"
    },
    {
      "name": "Vienna International Airport",
      "country": "AT",
      "iata_code": "VIE",
      "latitude": 48.110298156738,
      "longitude": 16.569700241089,
      "type": "large_airport"
    },
    {
      "name": "Brisbane International Airport",
      "country": "AU",
      "iata_code": "BNE",
      "latitude": -27.384199142456055,
      "longitude": 153.11700439453125,
      "type": "large_airport"
    },
    {
      "name": "Melbourne International Airport",
      "country": "AU",
      "iata_code": "MEL",
      "latitude": -37.673302,
      "longitude": 144.843002,
      "type": "large_airport"
    },
    {
      "name": "Adelaide International Airport",
      "country": "AU",
      "iata_code": "ADL",
      "latitude": -34.945,
      "longitude": 138.531006,
      "type": "large_airport"
    },
    {
      "name": "Perth International Airport",
      "country": "AU",
      "iata_code": "PER",
      "latitude": -31.94029998779297,
      "longitude": 115.96700286865234,
      "type": "large_airport"
    },
    {
      "name": "Canberra International Airport",
      "country": "AU",
      "iata_code": "CBR",
      "latitude": -35.30690002441406,
      "longitude": 149.19500732421875,
      "type": "large_airport"
    },
    {
      "name": "Sydney Kingsford Smith International Airport",
      "country": "AU",
      "iata_code": "SYD",
      "latitude": -33.94609832763672,
      "longitude": 151.177001953125,
      "type": "large_airport"
    },
    {
      "name": "Heydar Aliyev International Airport",
      "country": "AZ",
      "iata_code": "GYD",
      "latitude": 40.467498779296875,
      "longitude": 50.04669952392578,
      "type": "large_airport"
    },
    {
      "name": "Sarajevo International Airport",
      "country": "BA",
      "iata_code": "SJJ",
      "latitude": 43.82460021972656,
      "longitude": 18.331499099731445,
      "type": "large_airport"
    },
    {
      "name": "Hazrat Shahjalal International Airport",
      "country": "BD",
      "iata_code": "DAC",
      "latitude": 23.843347,
      "longitude": 90.397783,
      "type": "large_airport"
    },
    {
      "name": "Brussels Airport",
      "country": "BE",
      "iata_code": "BRU",
      "latitude": 50.901401519800004,
      "longitude": 4.48443984985,
      "type": "large_airport"
    },
    {
      "name": "Brussels South Charleroi Airport",
      "country": "BE",
      "iata_code": "CRL",
      "latitude": 50.459202,
      "longitude": 4.45382,
      "type": "large_airport"
    },
    {
      "name": "Liège Airport",
      "country": "BE",
      "iata_code": "LGG",
      "latitude": 50.63740158081055,
      "longitude": 5.443220138549805,
      "type": "large_airport"
    },
    {
      "name": "Ouagadougou Airport",
      "country": "BF",
      "iata_code": "OUA",
      "latitude": 12.3532,
      "longitude": -1.51242,
      "type": "large_airport"
    },
    {
      "name": "Burgas Airport",
      "country": "BG",
      "iata_code": "BOJ",
      "latitude": 42.56959915161133,
      "longitude": 27.515199661254883,
      "type": "large_airport"
    },
    {
      "name": "Sofia Airport",
      "country": "BG",
      "iata_code": "SOF",
      "latitude": 42.696693420410156,
      "longitude": 23.411436080932617,
      "type": "large_airport"
    },
    {
      "name": "Varna Airport",
      "country": "BG",
      "iata_code": "VAR",
      "latitude": 43.232101,
      "longitude": 27.8251,
      "type": "large_airport"
    },
    {
      "name": "Bahrain International Airport",
      "country": "BH",
      "iata_code": "BAH",
      "latitude": 26.27079963684082,
      "longitude": 50.63359832763672,
      "type": "large_airport"
    },
    {
      "name": "Brunei International Airport",
      "country": "BN",
      "iata_code": "BWN",
      "latitude": 4.944200038909912,
      "longitude": 114.9280014038086,
      "type": "large_airport"
    },
    {
      "name": "Viru Viru International Airport",
      "country": "BO",
      "iata_code": "VVI",
      "latitude": -17.6448,
      "longitude": -63.135399,
      "type": "large_airport"
    },
    {
      "name": "Val de Cans/Júlio Cezar Ribeiro International Airport",
      "country": "BR",
      "iata_code": "BEL",
      "latitude": -1.3792500495900002,
      "longitude": -48.4762992859,
      "type": "large_airport"
    },
    {
      "name": "Presidente Juscelino Kubitschek International Airport",
      "country": "BR",
      "iata_code": "BSB",
      "latitude": -15.869167,
      "longitude": -47.920834,
      "type": "large_airport"
    },
    {
      "name": "Tancredo Neves International Airport",
      "country": "BR",
      "iata_code": "CNF",
      "latitude": -19.62444305419922,
      "longitude": -43.97194290161133,
      "type": "large_airport"
    },
    {
      "name": "Afonso Pena Airport",
      "country": "BR",
      "iata_code": "CWB",
      "latitude": -25.5284996033,
      "longitude": -49.1758003235,
      "type": "large_airport"
    },
    {
      "name": "Eduardo Gomes International Airport",
      "country": "BR",
      "iata_code": "MAO",
      "latitude": -3.03861,
      "longitude": -60.049702,
      "type": "large_airport"
    },
    {
      "name": "Hercílio Luz International Airport",
      "country": "BR",
      "iata_code": "FLN",
      "latitude": -27.670278549194336,
      "longitude": -48.5525016784668,
      "type": "large_airport"
    },
    {
      "name": "Rio Galeão - Tom Jobim International Airport",
      "country": "BR",
      "iata_code": "GIG",
      "latitude": -22.8099994659,
      "longitude": -43.2505569458,
      "type": "large_airport"
    },
    {
      "name": "Guarulhos - Governador André Franco Montoro International Airport",
      "country": "BR",
      "iata_code": "GRU",
      "latitude": -23.435556411743164,
      "longitude": -46.47305679321289,
      "type": "large_airport"
    },
    {
      "name": "Governador Aluízio Alves International Airport",
      "country": "BR",
      "iata_code": "NAT",
      "latitude": -5.768056,
      "longitude": -35.376111,
      "type": "large_airport"
    },
    {
      "name": "Congonhas Airport",
      "country": "BR",
      "iata_code": "CGH",
      "latitude": -23.626110076904297,
      "longitude": -46.65638732910156,
      "type": "large_airport"
    },
    {
      "name": "Deputado Luiz Eduardo Magalhães International Airport",
      "country": "BR",
      "iata_code": "SSA",
      "latitude": -12.9086112976,
      "longitude": -38.3224983215,
      "type": "large_airport"
    },
    {
      "name": "Lynden Pindling International Airport",
      "country": "BS",
      "iata_code": "NAS",
      "latitude": 25.039,
      "longitude": -77.466202,
      "type": "large_airport"
    },
    {
      "name": "Sir Seretse Khama International Airport",
      "country": "BW",
      "iata_code": "GBE",
      "latitude": -24.555201,
      "longitude": 25.9182,
      "type": "large_airport"
    },
    {
      "name": "Minsk National Airport",
      "country": "BY",
      "iata_code": "MSQ",
      "latitude": 53.882499694824,
      "longitude": 28.030700683594,
      "type": "large_airport"
    },
    {
      "name": "Philip S. W. Goldson International Airport",
      "country": "BZ",
      "iata_code": "BZE",
      "latitude": 17.539100646972656,
      "longitude": -88.30819702148438,
      "type": "large_airport"
    },
    {
      "name": "Edmonton International Airport",
      "country": "CA",
      "iata_code": "YEG",
      "latitude": 53.309700012200004,
      "longitude": -113.580001831,
      "type": "large_airport"
    },
    {
      "name": "Halifax / Stanfield International Airport",
      "country": "CA",
      "iata_code": "YHZ",
      "latitude": 44.8807983398,
      "longitude": -63.5085983276,
      "type": "large_airport"
    },
    {
      "name": "Ottawa Macdonald-Cartier International Airport",
      "country": "CA",
      "iata_code": "YOW",
      "latitude": 45.3224983215332,
      "longitude": -75.66919708251953,
      "type": "large_airport"
    },
    {
      "name": "Montreal / Pierre Elliott Trudeau International Airport",
      "country": "CA",
      "iata_code": "YUL",
      "latitude": 45.4706001282,
      "longitude": -73.7407989502,
      "type": "large_airport"
    },
    {
      "name": "Vancouver International Airport",
      "country": "CA",
      "iata_code": "YVR",
      "latitude": 49.193901062,
      "longitude": -123.183998108,
      "type": "large_airport"
    },
    {
      "name": "Winnipeg / James Armstrong Richardson International Airport",
      "country": "CA",
      "iata_code": "YWG",
      "latitude": 49.909999847399995,
      "longitude": -97.2398986816,
      "type": "large_airport"
    },
    {
      "name": "Calgary International Airport",
      "country": "CA",
      "iata_code": "YYC",
      "latitude": 51.113899231,
      "longitude": -114.019996643,
      "type": "large_airport"
    },
    {
      "name": "Victoria International Airport",
      "country": "CA",
      "iata_code": "YYJ",
      "latitude": 48.646900177,
      "longitude": -123.426002502,
      "type": "large_airport"
    },
    {
      "name": "St. John's International Airport",
      "country": "CA",
      "iata_code": "YYT",
      "latitude": 47.618598938,
      "longitude": -52.7518997192,
      "type": "large_airport"
    },
    {
      "name": "Lester B. Pearson International Airport",
      "country": "CA",
      "iata_code": "YYZ",
      "latitude": 43.6772003174,
      "longitude": -79.63059997559999,
      "type": "large_airport"
    },
    {
      "name": "Ndjili International Airport",
      "country": "CD",
      "iata_code": "FIH",
      "latitude": -4.38575,
      "longitude": 15.4446,
      "type": "large_airport"
    },
    {
      "name": "Geneva Cointrin International Airport",
      "country": "CH",
      "iata_code": "GVA",
      "latitude": 46.23809814453125,
      "longitude": 6.108950138092041,
      "type": "large_airport"
    },
    {
      "name": "Zürich Airport",
      "country": "CH",
      "iata_code": "ZRH",
      "latitude": 47.464699,
      "longitude": 8.54917,
      "type": "large_airport"
    },
    {
      "name": "Rarotonga International Airport",
      "country": "CK",
      "iata_code": "RAR",
      "latitude": -21.2026996613,
      "longitude": -159.805999756,
      "type": "large_airport"
    },
    {
      "name": "Comodoro Arturo Merino Benítez International Airport",
      "country": "CL",
      "iata_code": "SCL",
      "latitude": -33.393001556396484,
      "longitude": -70.78579711914062,
      "type": "large_airport"
    },
    {
      "name": "Guodu air base",
      "country": "CN",
      "iata_code": "Guodu air base",
      "latitude": 36.001741,
      "longitude": 117.63201,
      "type": "large_airport"
    },
    {
      "name": "Yantai Penglai International Airport",
      "country": "CN",
      "iata_code": "YNT",
      "latitude": 37.657222,
      "longitude": 120.987222,
      "type": "large_airport"
    },
    {
      "name": "Beijing Capital International Airport",
      "country": "CN",
      "iata_code": "PEK",
      "latitude": 40.080101013183594,
      "longitude": 116.58499908447266,
      "type": "large_airport"
    },
    {
      "name": "Beijing Daxing International Airport",
      "country": "CN",
      "iata_code": "PKX",
      "latitude": 39.509945,
      "longitude": 116.41092,
      "type": "large_airport"
    },
    {
      "name": "Baita International Airport",
      "country": "CN",
      "iata_code": "HET",
      "latitude": 40.851398,
      "longitude": 111.823997,
      "type": "large_airport"
    },
    {
      "name": "Beijing Nanyuan Airport",
      "country": "CN",
      "iata_code": "NAY",
      "latitude": 39.782798767089844,
      "longitude": 116.38800048828125,
      "type": "large_airport"
    },
    {
      "name": "Tianjin Binhai International Airport",
      "country": "CN",
      "iata_code": "TSN",
      "latitude": 39.124401092499994,
      "longitude": 117.346000671,
      "type": "large_airport"
    },
    {
      "name": "Taiyuan Wusu Airport",
      "country": "CN",
      "iata_code": "TYN",
      "latitude": 37.74689865112305,
      "longitude": 112.62799835205078,
      "type": "large_airport"
    },
    {
      "name": "Guangzhou Baiyun International Airport",
      "country": "CN",
      "iata_code": "CAN",
      "latitude": 23.39240074157715,
      "longitude": 113.29900360107422,
      "type": "large_airport"
    },
    {
      "name": "Changsha Huanghua International Airport",
      "country": "CN",
      "iata_code": "CSX",
      "latitude": 28.189199447599997,
      "longitude": 113.220001221,
      "type": "large_airport"
    },
    {
      "name": "Guilin Liangjiang International Airport",
      "country": "CN",
      "iata_code": "KWL",
      "latitude": 25.21809959411621,
      "longitude": 110.03900146484375,
      "type": "large_airport"
    },
    {
      "name": "Nanning Wuxu Airport",
      "country": "CN",
      "iata_code": "NNG",
      "latitude": 22.608299255371094,
      "longitude": 108.1719970703125,
      "type": "large_airport"
    },
    {
      "name": "Shenzhen Bao'an International Airport",
      "country": "CN",
      "iata_code": "SZX",
      "latitude": 22.639299392700195,
      "longitude": 113.81099700927734,
      "type": "large_airport"
    },
    {
      "name": "Zhengzhou Xinzheng International Airport",
      "country": "CN",
      "iata_code": "CGO",
      "latitude": 34.519699096699995,
      "longitude": 113.841003418,
      "type": "large_airport"
    },
    {
      "name": "Wuhan Tianhe International Airport",
      "country": "CN",
      "iata_code": "WUH",
      "latitude": 30.7838,
      "longitude": 114.208,
      "type": "large_airport"
    },
    {
      "name": "Haikou Meilan International Airport",
      "country": "CN",
      "iata_code": "HAK",
      "latitude": 19.934900283813477,
      "longitude": 110.45899963378906,
      "type": "large_airport"
    },
    {
      "name": "Sanya Phoenix International Airport",
      "country": "CN",
      "iata_code": "SYX",
      "latitude": 18.302900314331055,
      "longitude": 109.41200256347656,
      "type": "large_airport"
    },
    {
      "name": "Xi'an Xianyang International Airport",
      "country": "CN",
      "iata_code": "XIY",
      "latitude": 34.447102,
      "longitude": 108.751999,
      "type": "large_airport"
    },
    {
      "name": "Kunming Changshui International Airport",
      "country": "CN",
      "iata_code": "KMG",
      "latitude": 25.1019444,
      "longitude": 102.9291667,
      "type": "large_airport"
    },
    {
      "name": "Xiamen Gaoqi International Airport",
      "country": "CN",
      "iata_code": "XMN",
      "latitude": 24.54400062561035,
      "longitude": 118.12799835205078,
      "type": "large_airport"
    },
    {
      "name": "Fuzhou Changle International Airport",
      "country": "CN",
      "iata_code": "FOC",
      "latitude": 25.935100555419922,
      "longitude": 119.66300201416016,
      "type": "large_airport"
    },
    {
      "name": "Hangzhou Xiaoshan International Airport",
      "country": "CN",
      "iata_code": "HGH",
      "latitude": 30.22949981689453,
      "longitude": 120.43399810791016,
      "type": "large_airport"
    },
    {
      "name": "Yaoqiang Airport",
      "country": "CN",
      "iata_code": "TNA",
      "latitude": 36.857200622558594,
      "longitude": 117.21600341796875,
      "type": "large_airport"
    },
    {
      "name": "Ningbo Lishe International Airport",
      "country": "CN",
      "iata_code": "NGB",
      "latitude": 29.82670021057129,
      "longitude": 121.46199798583984,
      "type": "large_airport"
    },
    {
      "name": "Nanjing Lukou Airport",
      "country": "CN",
      "iata_code": "NKG",
      "latitude": 31.742000579833984,
      "longitude": 118.86199951171875,
      "type": "large_airport"
    },
    {
      "name": "Shanghai Pudong International Airport",
      "country": "CN",
      "iata_code": "PVG",
      "latitude": 31.143400192260742,
      "longitude": 121.80500030517578,
      "type": "large_airport"
    },
    {
      "name": "Shanghai Hongqiao International Airport",
      "country": "CN",
      "iata_code": "SHA",
      "latitude": 31.197900772094727,
      "longitude": 121.33599853515625,
      "type": "large_airport"
    },
    {
      "name": "Wenzhou Longwan International Airport",
      "country": "CN",
      "iata_code": "WNZ",
      "latitude": 27.912201,
      "longitude": 120.851997,
      "type": "large_airport"
    },
    {
      "name": "Chongqing Jiangbei International Airport",
      "country": "CN",
      "iata_code": "CKG",
      "latitude": 29.719200134277344,
      "longitude": 106.64199829101562,
      "type": "large_airport"
    },
    {
      "name": "Longdongbao Airport",
      "country": "CN",
      "iata_code": "KWE",
      "latitude": 26.53849983215332,
      "longitude": 106.8010025024414,
      "type": "large_airport"
    },
    {
      "name": "Chengdu Shuangliu International Airport",
      "country": "CN",
      "iata_code": "CTU",
      "latitude": 30.578500747680664,
      "longitude": 103.9469985961914,
      "type": "large_airport"
    },
    {
      "name": "Ürümqi Diwopu International Airport",
      "country": "CN",
      "iata_code": "URC",
      "latitude": 43.907100677490234,
      "longitude": 87.47419738769531,
      "type": "large_airport"
    },
    {
      "name": "Taiping Airport",
      "country": "CN",
      "iata_code": "HRB",
      "latitude": 45.6234016418457,
      "longitude": 126.25,
      "type": "large_airport"
    },
    {
      "name": "Zhoushuizi Airport",
      "country": "CN",
      "iata_code": "DLC",
      "latitude": 38.9656982421875,
      "longitude": 121.53900146484375,
      "type": "large_airport"
    },
    {
      "name": "Taoxian Airport",
      "country": "CN",
      "iata_code": "SHE",
      "latitude": 41.639801025390625,
      "longitude": 123.48300170898438,
      "type": "large_airport"
    },
    {
      "name": "El Dorado International Airport",
      "country": "CO",
      "iata_code": "BOG",
      "latitude": 4.70159,
      "longitude": -74.1469,
      "type": "large_airport"
    },
    {
      "name": "Daniel Oduber Quiros International Airport",
      "country": "CR",
      "iata_code": "LIR",
      "latitude": 10.5933,
      "longitude": -85.544403,
      "type": "large_airport"
    },
    {
      "name": "José Martí International Airport",
      "country": "CU",
      "iata_code": "HAV",
      "latitude": 22.989200592041016,
      "longitude": -82.40910339355469,
      "type": "large_airport"
    },
    {
      "name": "Juan Gualberto Gomez International Airport",
      "country": "CU",
      "iata_code": "VRA",
      "latitude": 23.034400939941406,
      "longitude": -81.435302734375,
      "type": "large_airport"
    },
    {
      "name": "Amílcar Cabral International Airport",
      "country": "CV",
      "iata_code": "SID",
      "latitude": 16.7414,
      "longitude": -22.9494,
      "type": "large_airport"
    },
    {
      "name": "Larnaca International Airport",
      "country": "CY",
      "iata_code": "LCA",
      "latitude": 34.875099182128906,
      "longitude": 33.624900817871094,
      "type": "large_airport"
    },
    {
      "name": "Paphos International Airport",
      "country": "CY",
      "iata_code": "PFO",
      "latitude": 34.71799850463867,
      "longitude": 32.48569869995117,
      "type": "large_airport"
    },
    {
      "name": "Václav Havel Airport Prague",
      "country": "CZ",
      "iata_code": "PRG",
      "latitude": 50.1008,
      "longitude": 14.26,
      "type": "large_airport"
    },
    {
      "name": "Berlin-Schönefeld Airport",
      "country": "DE",
      "iata_code": "SXF",
      "latitude": 52.380001,
      "longitude": 13.5225,
      "type": "large_airport"
    },
    {
      "name": "Dresden Airport",
      "country": "DE",
      "iata_code": "DRS",
      "latitude": 51.1328010559082,
      "longitude": 13.767200469970703,
      "type": "large_airport"
    },
    {
      "name": "Frankfurt am Main Airport",
      "country": "DE",
      "iata_code": "FRA",
      "latitude": 50.033333,
      "longitude": 8.570556,
      "type": "large_airport"
    },
    {
      "name": "Münster Osnabrück Airport",
      "country": "DE",
      "iata_code": "FMO",
      "latitude": 52.134601593,
      "longitude": 7.68483018875,
      "type": "large_airport"
    },
    {
      "name": "Hamburg Airport",
      "country": "DE",
      "iata_code": "HAM",
      "latitude": 53.630401611328,
      "longitude": 9.9882297515869,
      "type": "large_airport"
    },
    {
      "name": "Cologne Bonn Airport",
      "country": "DE",
      "iata_code": "CGN",
      "latitude": 50.8658981323,
      "longitude": 7.1427397728,
      "type": "large_airport"
    },
    {
      "name": "Düsseldorf Airport",
      "country": "DE",
      "iata_code": "DUS",
      "latitude": 51.289501,
      "longitude": 6.76678,
      "type": "large_airport"
    },
    {
      "name": "Munich Airport",
      "country": "DE",
      "iata_code": "MUC",
      "latitude": 48.353802,
      "longitude": 11.7861,
      "type": "large_airport"
    },
    {
      "name": "Nuremberg Airport",
      "country": "DE",
      "iata_code": "NUE",
      "latitude": 49.498699,
      "longitude": 11.078056,
      "type": "large_airport"
    },
    {
      "name": "Leipzig/Halle Airport",
      "country": "DE",
      "iata_code": "LEJ",
      "latitude": 51.423889,
      "longitude": 12.236389,
      "type": "large_airport"
    },
    {
      "name": "Stuttgart Airport",
      "country": "DE",
      "iata_code": "STR",
      "latitude": 48.689899444599995,
      "longitude": 9.22196006775,
      "type": "large_airport"
    },
    {
      "name": "Berlin-Tegel Airport",
      "country": "DE",
      "iata_code": "TXL",
      "latitude": 52.5597,
      "longitude": 13.2877,
      "type": "large_airport"
    },
    {
      "name": "Hannover Airport",
      "country": "DE",
      "iata_code": "HAJ",
      "latitude": 52.461101532,
      "longitude": 9.685079574580001,
      "type": "large_airport"
    },
    {
      "name": "Bremen Airport",
      "country": "DE",
      "iata_code": "BRE",
      "latitude": 53.0475006104,
      "longitude": 8.78666973114,
      "type": "large_airport"
    },
    {
      "name": "Dortmund Airport",
      "country": "DE",
      "iata_code": "DTM",
      "latitude": 51.51829910279999,
      "longitude": 7.61223983765,
      "type": "large_airport"
    },
    {
      "name": "Karlsruhe Baden-Baden Airport",
      "country": "DE",
      "iata_code": "FKB",
      "latitude": 48.7793998718,
      "longitude": 8.08049964905,
      "type": "large_airport"
    },
    {
      "name": "Ramstein Air Base",
      "country": "DE",
      "iata_code": "RMS",
      "latitude": 49.4369010925293,
      "longitude": 7.600279808044434,
      "type": "large_airport"
    },
    {
      "name": "Billund Airport",
      "country": "DK",
      "iata_code": "BLL",
      "latitude": 55.7402992249,
      "longitude": 9.15178012848,
      "type": "large_airport"
    },
    {
      "name": "Copenhagen Kastrup Airport",
      "country": "DK",
      "iata_code": "CPH",
      "latitude": 55.617900848389,
      "longitude": 12.656000137329,
      "type": "large_airport"
    },
    {
      "name": "Aalborg Airport",
      "country": "DK",
      "iata_code": "AAL",
      "latitude": 57.0927589138,
      "longitude": 9.84924316406,
      "type": "large_airport"
    },
    {
      "name": "Punta Cana International Airport",
      "country": "DO",
      "iata_code": "PUJ",
      "latitude": 18.567399978599997,
      "longitude": -68.36340332030001,
      "type": "large_airport"
    },
    {
      "name": "Las Américas International Airport",
      "country": "DO",
      "iata_code": "SDQ",
      "latitude": 18.42970085144,
      "longitude": -69.668899536133,
      "type": "large_airport"
    },
    {
      "name": "Houari Boumediene Airport",
      "country": "DZ",
      "iata_code": "ALG",
      "latitude": 36.691001892089844,
      "longitude": 3.215409994125366,
      "type": "large_airport"
    },
    {
      "name": "Cotopaxi International Airport",
      "country": "EC",
      "iata_code": "LTX",
      "latitude": -0.906833,
      "longitude": -78.615799,
      "type": "large_airport"
    },
    {
      "name": "Mariscal Sucre International Airport",
      "country": "EC",
      "iata_code": "UIO",
      "latitude": -0.129166666667,
      "longitude": -78.3575,
      "type": "large_airport"
    },
    {
      "name": "Lennart Meri Tallinn Airport",
      "country": "EE",
      "iata_code": "TLL",
      "latitude": 59.41329956049999,
      "longitude": 24.832799911499997,
      "type": "large_airport"
    },
    {
      "name": "Cairo International Airport",
      "country": "EG",
      "iata_code": "CAI",
      "latitude": 30.12190055847168,
      "longitude": 31.40559959411621,
      "type": "large_airport"
    },
    {
      "name": "Hurghada International Airport",
      "country": "EG",
      "iata_code": "HRG",
      "latitude": 27.178300857543945,
      "longitude": 33.799400329589844,
      "type": "large_airport"
    },
    {
      "name": "Luxor International Airport",
      "country": "EG",
      "iata_code": "LXR",
      "latitude": 25.671,
      "longitude": 32.7066,
      "type": "large_airport"
    },
    {
      "name": "La Palma Airport",
      "country": "ES",
      "iata_code": "SPC",
      "latitude": 28.626499,
      "longitude": -17.7556,
      "type": "large_airport"
    },
    {
      "name": "Gran Canaria Airport",
      "country": "ES",
      "iata_code": "LPA",
      "latitude": 27.931900024414062,
      "longitude": -15.38659954071045,
      "type": "large_airport"
    },
    {
      "name": "Tenerife South Airport",
      "country": "ES",
      "iata_code": "TFS",
      "latitude": 28.044500351,
      "longitude": -16.5725002289,
      "type": "large_airport"
    },
    {
      "name": "Tenerife Norte Airport",
      "country": "ES",
      "iata_code": "TFN",
      "latitude": 28.4827003479,
      "longitude": -16.3414993286,
      "type": "large_airport"
    },
    {
      "name": "Alicante International Airport",
      "country": "ES",
      "iata_code": "ALC",
      "latitude": 38.28219985961914,
      "longitude": -0.5581560134887695,
      "type": "large_airport"
    },
    {
      "name": "Barcelona International Airport",
      "country": "ES",
      "iata_code": "BCN",
      "latitude": 41.2971,
      "longitude": 2.07846,
      "type": "large_airport"
    },
    {
      "name": "Adolfo Suárez Madrid-Barajas Airport",
      "country": "ES",
      "iata_code": "MAD",
      "latitude": 40.471926,
      "longitude": -3.56264,
      "type": "large_airport"
    },
    {
      "name": "Málaga Airport",
      "country": "ES",
      "iata_code": "AGP",
      "latitude": 36.67490005493164,
      "longitude": -4.499110221862793,
      "type": "large_airport"
    },
    {
      "name": "Palma De Mallorca Airport",
      "country": "ES",
      "iata_code": "PMI",
      "latitude": 39.551700592,
      "longitude": 2.73881006241,
      "type": "large_airport"
    },
    {
      "name": "Santiago de Compostela Airport",
      "country": "ES",
      "iata_code": "SCQ",
      "latitude": 42.89630126953125,
      "longitude": -8.415140151977539,
      "type": "large_airport"
    },
    {
      "name": "Addis Ababa Bole International Airport",
      "country": "ET",
      "iata_code": "ADD",
      "latitude": 8.97789001465,
      "longitude": 38.799301147499996,
      "type": "large_airport"
    },
    {
      "name": "Helsinki Vantaa Airport",
      "country": "FI",
      "iata_code": "HEL",
      "latitude": 60.317199707031,
      "longitude": 24.963300704956,
      "type": "large_airport"
    },
    {
      "name": "Bordeaux-Mérignac Airport",
      "country": "FR",
      "iata_code": "BOD",
      "latitude": 44.828300476100004,
      "longitude": -0.715556025505,
      "type": "large_airport"
    },
    {
      "name": "Toulouse-Blagnac Airport",
      "country": "FR",
      "iata_code": "TLS",
      "latitude": 43.629101,
      "longitude": 1.36382,
      "type": "large_airport"
    },
    {
      "name": "Lyon Saint-Exupéry Airport",
      "country": "FR",
      "iata_code": "LYS",
      "latitude": 45.725556,
      "longitude": 5.081111,
      "type": "large_airport"
    },
    {
      "name": "Marseille Provence Airport",
      "country": "FR",
      "iata_code": "MRS",
      "latitude": 43.439271922,
      "longitude": 5.22142410278,
      "type": "large_airport"
    },
    {
      "name": "Nice-Côte d'Azur Airport",
      "country": "FR",
      "iata_code": "NCE",
      "latitude": 43.6584014893,
      "longitude": 7.215869903560001,
      "type": "large_airport"
    },
    {
      "name": "Avord (BA 702) Air Base",
      "country": "FR",
      "iata_code": "Avord (BA 702) Air Base",
      "latitude": 47.053299,
      "longitude": 2.6325,
      "type": "large_airport"
    },
    {
      "name": "Charles de Gaulle International Airport",
      "country": "FR",
      "iata_code": "CDG",
      "latitude": 49.012798,
      "longitude": 2.55,
      "type": "large_airport"
    },
    {
      "name": "Paris-Orly Airport",
      "country": "FR",
      "iata_code": "ORY",
      "latitude": 48.7233333,
      "longitude": 2.3794444,
      "type": "large_airport"
    },
    {
      "name": "EuroAirport Basel-Mulhouse-Freiburg Airport",
      "country": "FR",
      "iata_code": "BSL",
      "latitude": 47.59,
      "longitude": 7.529167,
      "type": "large_airport"
    },
    {
      "name": "Belfast International Airport",
      "country": "GB",
      "iata_code": "BFS",
      "latitude": 54.6575012207,
      "longitude": -6.2158298492399995,
      "type": "large_airport"
    },
    {
      "name": "George Best Belfast City Airport",
      "country": "GB",
      "iata_code": "BHD",
      "latitude": 54.618099212646484,
      "longitude": -5.872499942779541,
      "type": "large_airport"
    },
    {
      "name": "Birmingham International Airport",
      "country": "GB",
      "iata_code": "BHX",
      "latitude": 52.453899383499994,
      "longitude": -1.74802994728,
      "type": "large_airport"
    },
    {
      "name": "Manchester Airport",
      "country": "GB",
      "iata_code": "MAN",
      "latitude": 53.35369873046875,
      "longitude": -2.2749500274658203,
      "type": "large_airport"
    },
    {
      "name": "Robin Hood Doncaster Sheffield Airport",
      "country": "GB",
      "iata_code": "DSA",
      "latitude": 53.4805378105,
      "longitude": -1.01065635681,
      "type": "large_airport"
    },
    {
      "name": "Cardiff International Airport",
      "country": "GB",
      "iata_code": "CWL",
      "latitude": 51.39670181274414,
      "longitude": -3.343329906463623,
      "type": "large_airport"
    },
    {
      "name": "Bristol Airport",
      "country": "GB",
      "iata_code": "BRS",
      "latitude": 51.382702,
      "longitude": -2.71909,
      "type": "large_airport"
    },
    {
      "name": "Liverpool John Lennon Airport",
      "country": "GB",
      "iata_code": "LPL",
      "latitude": 53.33359909057617,
      "longitude": -2.849720001220703,
      "type": "large_airport"
    },
    {
      "name": "London Luton Airport",
      "country": "GB",
      "iata_code": "LTN",
      "latitude": 51.874698638916016,
      "longitude": -0.36833301186561584,
      "type": "large_airport"
    },
    {
      "name": "Bournemouth Airport",
      "country": "GB",
      "iata_code": "BOH",
      "latitude": 50.779998779296875,
      "longitude": -1.8424999713897705,
      "type": "large_airport"
    },
    {
      "name": "Southampton Airport",
      "country": "GB",
      "iata_code": "SOU",
      "latitude": 50.95029830932617,
      "longitude": -1.3567999601364136,
      "type": "large_airport"
    },
    {
      "name": "London Gatwick Airport",
      "country": "GB",
      "iata_code": "LGW",
      "latitude": 51.148102,
      "longitude": -0.190278,
      "type": "large_airport"
    },
    {
      "name": "London Heathrow Airport",
      "country": "GB",
      "iata_code": "LHR",
      "latitude": 51.4706,
      "longitude": -0.461941,
      "type": "large_airport"
    },
    {
      "name": "Leeds Bradford Airport",
      "country": "GB",
      "iata_code": "LBA",
      "latitude": 53.86589813232422,
      "longitude": -1.6605700254440308,
      "type": "large_airport"
    },
    {
      "name": "Newcastle Airport",
      "country": "GB",
      "iata_code": "NCL",
      "latitude": 55.037498474121094,
      "longitude": -1.6916699409484863,
      "type": "large_airport"
    },
    {
      "name": "East Midlands Airport",
      "country": "GB",
      "iata_code": "EMA",
      "latitude": 52.8311004639,
      "longitude": -1.32806003094,
      "type": "large_airport"
    },
    {
      "name": "Aberdeen Dyce Airport",
      "country": "GB",
      "iata_code": "ABZ",
      "latitude": 57.201900482177734,
      "longitude": -2.197779893875122,
      "type": "large_airport"
    },
    {
      "name": "Glasgow International Airport",
      "country": "GB",
      "iata_code": "GLA",
      "latitude": 55.871899,
      "longitude": -4.43306,
      "type": "large_airport"
    },
    {
      "name": "Edinburgh Airport",
      "country": "GB",
      "iata_code": "EDI",
      "latitude": 55.95000076293945,
      "longitude": -3.372499942779541,
      "type": "large_airport"
    },
    {
      "name": "Norwich International Airport",
      "country": "GB",
      "iata_code": "NWI",
      "latitude": 52.6758003235,
      "longitude": 1.28278005123,
      "type": "large_airport"
    },
    {
      "name": "London Stansted Airport",
      "country": "GB",
      "iata_code": "STN",
      "latitude": 51.8849983215,
      "longitude": 0.234999999404,
      "type": "large_airport"
    },
    {
      "name": "Exeter International Airport",
      "country": "GB",
      "iata_code": "EXT",
      "latitude": 50.73440170288086,
      "longitude": -3.4138898849487305,
      "type": "large_airport"
    },
    {
      "name": "RAF Lakenheath",
      "country": "GB",
      "iata_code": "LKZ",
      "latitude": 52.409301757799994,
      "longitude": 0.56099998951,
      "type": "large_airport"
    },
    {
      "name": "RAF Mildenhall",
      "country": "GB",
      "iata_code": "MHZ",
      "latitude": 52.361900329589844,
      "longitude": 0.48640599846839905,
      "type": "large_airport"
    },
    {
      "name": "RAF Fairford",
      "country": "GB",
      "iata_code": "FFD",
      "latitude": 51.6822013855,
      "longitude": -1.7900300025900002,
      "type": "large_airport"
    },
    {
      "name": "RAF Brize Norton",
      "country": "GB",
      "iata_code": "BZZ",
      "latitude": 51.75,
      "longitude": -1.58362,
      "type": "large_airport"
    },
    {
      "name": "RAF Akrotiri",
      "country": "GB",
      "iata_code": "AKT",
      "latitude": 34.590401,
      "longitude": 32.9879,
      "type": "large_airport"
    },
    {
      "name": "Tbilisi International Airport",
      "country": "GE",
      "iata_code": "TBS",
      "latitude": 41.6692008972,
      "longitude": 44.95470047,
      "type": "large_airport"
    },
    {
      "name": "Kotoka International Airport",
      "country": "GH",
      "iata_code": "ACC",
      "latitude": 5.605189800262451,
      "longitude": -0.16678600013256073,
      "type": "large_airport"
    },
    {
      "name": "Pointe-à-Pitre Le Raizet",
      "country": "GP",
      "iata_code": "PTP",
      "latitude": 16.265301,
      "longitude": -61.531799,
      "type": "large_airport"
    },
    {
      "name": "Eleftherios Venizelos International Airport",
      "country": "GR",
      "iata_code": "ATH",
      "latitude": 37.9364013672,
      "longitude": 23.9444999695,
      "type": "large_airport"
    },
    {
      "name": "Heraklion International Nikos Kazantzakis Airport",
      "country": "GR",
      "iata_code": "HER",
      "latitude": 35.3396987915,
      "longitude": 25.180299758900002,
      "type": "large_airport"
    },
    {
      "name": "Thessaloniki Macedonia International Airport",
      "country": "GR",
      "iata_code": "SKG",
      "latitude": 40.51969909667969,
      "longitude": 22.97089958190918,
      "type": "large_airport"
    },
    {
      "name": "La Aurora Airport",
      "country": "GT",
      "iata_code": "GUA",
      "latitude": 14.5833,
      "longitude": -90.527496,
      "type": "large_airport"
    },
    {
      "name": "Antonio B. Won Pat International Airport",
      "country": "GU",
      "iata_code": "GUM",
      "latitude": 13.4834003448,
      "longitude": 144.796005249,
      "type": "large_airport"
    },
    {
      "name": "Hong Kong International Airport",
      "country": "HK",
      "iata_code": "HKG",
      "latitude": 22.308901,
      "longitude": 113.915001,
      "type": "large_airport"
    },
    {
      "name": "Zagreb Airport",
      "country": "HR",
      "iata_code": "ZAG",
      "latitude": 45.7429008484,
      "longitude": 16.0687999725,
      "type": "large_airport"
    },
    {
      "name": "Budapest Liszt Ferenc International Airport",
      "country": "HU",
      "iata_code": "BUD",
      "latitude": 47.42976,
      "longitude": 19.261093,
      "type": "large_airport"
    },
    {
      "name": "Aji Pangeran Tumenggung Pranoto International Airport",
      "country": "ID",
      "iata_code": "AAP",
      "latitude": -0.374448,
      "longitude": 117.249392,
      "type": "large_airport"
    },
    {
      "name": "Hasanuddin International Airport",
      "country": "ID",
      "iata_code": "UPG",
      "latitude": -5.061629772186279,
      "longitude": 119.55400085449219,
      "type": "large_airport"
    },
    {
      "name": "Ngurah Rai (Bali) International Airport",
      "country": "ID",
      "iata_code": "DPS",
      "latitude": -8.7481698989868,
      "longitude": 115.16699981689,
      "type": "large_airport"
    },
    {
      "name": "Sentani International Airport",
      "country": "ID",
      "iata_code": "DJJ",
      "latitude": -2.5769500733,
      "longitude": 140.5160064698,
      "type": "large_airport"
    },
    {
      "name": "Juanda International Airport",
      "country": "ID",
      "iata_code": "SUB",
      "latitude": -7.3798298835754395,
      "longitude": 112.78700256347656,
      "type": "large_airport"
    },
    {
      "name": "Dominique Edward Osok Airport",
      "country": "ID",
      "iata_code": "SOQ",
      "latitude": -0.894,
      "longitude": 131.287,
      "type": "large_airport"
    },
    {
      "name": "Soekarno-Hatta International Airport",
      "country": "ID",
      "iata_code": "CGK",
      "latitude": -6.1255698204,
      "longitude": 106.65599823,
      "type": "large_airport"
    },
    {
      "name": "Kualanamu International Airport",
      "country": "ID",
      "iata_code": "KNO",
      "latitude": 3.642222,
      "longitude": 98.885278,
      "type": "large_airport"
    },
    {
      "name": "Cork Airport",
      "country": "IE",
      "iata_code": "ORK",
      "latitude": 51.84130096435547,
      "longitude": -8.491109848022461,
      "type": "large_airport"
    },
    {
      "name": "Dublin Airport",
      "country": "IE",
      "iata_code": "DUB",
      "latitude": 53.421299,
      "longitude": -6.27007,
      "type": "large_airport"
    },
    {
      "name": "Shannon Airport",
      "country": "IE",
      "iata_code": "SNN",
      "latitude": 52.702,
      "longitude": -8.92482,
      "type": "large_airport"
    },
    {
      "name": "Ben Gurion International Airport",
      "country": "IL",
      "iata_code": "TLV",
      "latitude": 32.01139831542969,
      "longitude": 34.88669967651367,
      "type": "large_airport"
    },
    {
      "name": "Ovda International Airport",
      "country": "IL",
      "iata_code": "VDA",
      "latitude": 29.94029998779297,
      "longitude": 34.93579864501953,
      "type": "large_airport"
    },
    {
      "name": "Chhatrapati Shivaji International Airport",
      "country": "IN",
      "iata_code": "BOM",
      "latitude": 19.0886993408,
      "longitude": 72.8678970337,
      "type": "large_airport"
    },
    {
      "name": "Dabolim Airport",
      "country": "IN",
      "iata_code": "GOI",
      "latitude": 15.3808002472,
      "longitude": 73.8313980103,
      "type": "large_airport"
    },
    {
      "name": "Netaji Subhash Chandra Bose International Airport",
      "country": "IN",
      "iata_code": "CCU",
      "latitude": 22.654699325561523,
      "longitude": 88.44670104980469,
      "type": "large_airport"
    },
    {
      "name": "Sri Guru Ram Dass Jee International Airport",
      "country": "IN",
      "iata_code": "ATQ",
      "latitude": 31.7096004486,
      "longitude": 74.7973022461,
      "type": "large_airport"
    },
    {
      "name": "Indira Gandhi International Airport",
      "country": "IN",
      "iata_code": "DEL",
      "latitude": 28.5665,
      "longitude": 77.103104,
      "type": "large_airport"
    },
    {
      "name": "Kempegowda International Airport",
      "country": "IN",
      "iata_code": "BLR",
      "latitude": 13.1979,
      "longitude": 77.706299,
      "type": "large_airport"
    },
    {
      "name": "Cochin International Airport",
      "country": "IN",
      "iata_code": "COK",
      "latitude": 10.152,
      "longitude": 76.401901,
      "type": "large_airport"
    },
    {
      "name": "Calicut International Airport",
      "country": "IN",
      "iata_code": "CCJ",
      "latitude": 11.1367998123,
      "longitude": 75.95529937740001,
      "type": "large_airport"
    },
    {
      "name": "Rajiv Gandhi International Airport",
      "country": "IN",
      "iata_code": "HYD",
      "latitude": 17.231318,
      "longitude": 78.429855,
      "type": "large_airport"
    },
    {
      "name": "Chennai International Airport",
      "country": "IN",
      "iata_code": "MAA",
      "latitude": 12.990005493164062,
      "longitude": 80.16929626464844,
      "type": "large_airport"
    },
    {
      "name": "Trivandrum International Airport",
      "country": "IN",
      "iata_code": "TRV",
      "latitude": 8.48211956024,
      "longitude": 76.9200973511,
      "type": "large_airport"
    },
    {
      "name": "Baghdad International Airport",
      "country": "IQ",
      "iata_code": "BGW",
      "latitude": 33.262500762900004,
      "longitude": 44.2346000671,
      "type": "large_airport"
    },
    {
      "name": "Basrah International Airport",
      "country": "IQ",
      "iata_code": "BSR",
      "latitude": 30.549100875854492,
      "longitude": 47.66210174560547,
      "type": "large_airport"
    },
    {
      "name": "Imam Khomeini International Airport",
      "country": "IR",
      "iata_code": "IKA",
      "latitude": 35.416099548339844,
      "longitude": 51.152198791503906,
      "type": "large_airport"
    },
    {
      "name": "Mehrabad International Airport",
      "country": "IR",
      "iata_code": "THR",
      "latitude": 35.68920135498047,
      "longitude": 51.31340026855469,
      "type": "large_airport"
    },
    {
      "name": "Mashhad International Airport",
      "country": "IR",
      "iata_code": "MHD",
      "latitude": 36.235198974609375,
      "longitude": 59.64099884033203,
      "type": "large_airport"
    },
    {
      "name": "Shiraz Shahid Dastghaib International Airport",
      "country": "IR",
      "iata_code": "SYZ",
      "latitude": 29.5392,
      "longitude": 52.589802,
      "type": "large_airport"
    },
    {
      "name": "Tabriz International Airport",
      "country": "IR",
      "iata_code": "TBZ",
      "latitude": 38.1338996887207,
      "longitude": 46.23500061035156,
      "type": "large_airport"
    },
    {
      "name": "Keflavik International Airport",
      "country": "IS",
      "iata_code": "KEF",
      "latitude": 63.985001,
      "longitude": -22.6056,
      "type": "large_airport"
    },
    {
      "name": "Bari Karol Wojtyła Airport",
      "country": "IT",
      "iata_code": "BRI",
      "latitude": 41.138901,
      "longitude": 16.760599,
      "type": "large_airport"
    },
    {
      "name": "Catania-Fontanarossa Airport",
      "country": "IT",
      "iata_code": "CTA",
      "latitude": 37.466801,
      "longitude": 15.0664,
      "type": "large_airport"
    },
    {
      "name": "Falcone-Borsellino Airport",
      "country": "IT",
      "iata_code": "PMO",
      "latitude": 38.175999,
      "longitude": 13.091,
      "type": "large_airport"
    },
    {
      "name": "Cagliari Elmas Airport",
      "country": "IT",
      "iata_code": "CAG",
      "latitude": 39.251499,
      "longitude": 9.05428,
      "type": "large_airport"
    },
    {
      "name": "Malpensa International Airport",
      "country": "IT",
      "iata_code": "MXP",
      "latitude": 45.6306,
      "longitude": 8.72811,
      "type": "large_airport"
    },
    {
      "name": "Milan Bergamo Airport",
      "country": "IT",
      "iata_code": "BGY",
      "latitude": 45.673901,
      "longitude": 9.70417,
      "type": "large_airport"
    },
    {
      "name": "Turin Airport",
      "country": "IT",
      "iata_code": "TRN",
      "latitude": 45.200802,
      "longitude": 7.64963,
      "type": "large_airport"
    },
    {
      "name": "Genoa Cristoforo Colombo Airport",
      "country": "IT",
      "iata_code": "GOA",
      "latitude": 44.4133,
      "longitude": 8.8375,
      "type": "large_airport"
    },
    {
      "name": "Milano Linate Airport",
      "country": "IT",
      "iata_code": "LIN",
      "latitude": 45.445099,
      "longitude": 9.27674,
      "type": "large_airport"
    },
    {
      "name": "Bologna Guglielmo Marconi Airport",
      "country": "IT",
      "iata_code": "BLQ",
      "latitude": 44.5354,
      "longitude": 11.2887,
      "type": "large_airport"
    },
    {
      "name": "Treviso-Sant'Angelo Airport",
      "country": "IT",
      "iata_code": "TSF",
      "latitude": 45.648399,
      "longitude": 12.1944,
      "type": "large_airport"
    },
    {
      "name": "Verona Villafranca Airport",
      "country": "IT",
      "iata_code": "VRN",
      "latitude": 45.395699,
      "longitude": 10.8885,
      "type": "large_airport"
    },
    {
      "name": "Venice Marco Polo Airport",
      "country": "IT",
      "iata_code": "VCE",
      "latitude": 45.505299,
      "longitude": 12.3519,
      "type": "large_airport"
    },
    {
      "name": "Ciampino-G. B. Pastine International Airport",
      "country": "IT",
      "iata_code": "CIA",
      "latitude": 41.7994,
      "longitude": 12.5949,
      "type": "large_airport"
    },
    {
      "name": "Leonardo da Vinci-Fiumicino Airport",
      "country": "IT",
      "iata_code": "FCO",
      "latitude": 41.8002778,
      "longitude": 12.2388889,
      "type": "large_airport"
    },
    {
      "name": "Naples International Airport",
      "country": "IT",
      "iata_code": "NAP",
      "latitude": 40.886002,
      "longitude": 14.2908,
      "type": "large_airport"
    },
    {
      "name": "Pisa International Airport",
      "country": "IT",
      "iata_code": "PSA",
      "latitude": 43.683899,
      "longitude": 10.3927,
      "type": "large_airport"
    },
    {
      "name": "Norman Manley International Airport",
      "country": "JM",
      "iata_code": "KIN",
      "latitude": 17.935699462890625,
      "longitude": -76.7874984741211,
      "type": "large_airport"
    },
    {
      "name": "Queen Alia International Airport",
      "country": "JO",
      "iata_code": "AMM",
      "latitude": 31.7226009369,
      "longitude": 35.9931983948,
      "type": "large_airport"
    },
    {
      "name": "Narita International Airport",
      "country": "JP",
      "iata_code": "NRT",
      "latitude": 35.764702,
      "longitude": 140.386002,
      "type": "large_airport"
    },
    {
      "name": "Kansai International Airport",
      "country": "JP",
      "iata_code": "KIX",
      "latitude": 34.42729949951172,
      "longitude": 135.24400329589844,
      "type": "large_airport"
    },
    {
      "name": "New Chitose Airport",
      "country": "JP",
      "iata_code": "CTS",
      "latitude": 42.77519989013672,
      "longitude": 141.69200134277344,
      "type": "large_airport"
    },
    {
      "name": "Fukuoka Airport",
      "country": "JP",
      "iata_code": "FUK",
      "latitude": 33.585899353027344,
      "longitude": 130.4510040283203,
      "type": "large_airport"
    },
    {
      "name": "Kagoshima Airport",
      "country": "JP",
      "iata_code": "KOJ",
      "latitude": 31.80340003967285,
      "longitude": 130.718994140625,
      "type": "large_airport"
    },
    {
      "name": "Chubu Centrair International Airport",
      "country": "JP",
      "iata_code": "NGO",
      "latitude": 34.8583984375,
      "longitude": 136.80499267578125,
      "type": "large_airport"
    },
    {
      "name": "Mt. Fuji Shizuoka Airport",
      "country": "JP",
      "iata_code": "FSZ",
      "latitude": 34.7960434679,
      "longitude": 138.18775177,
      "type": "large_airport"
    },
    {
      "name": "Osaka International Airport",
      "country": "JP",
      "iata_code": "ITM",
      "latitude": 34.785499572753906,
      "longitude": 135.43800354003906,
      "type": "large_airport"
    },
    {
      "name": "Tokyo Haneda International Airport",
      "country": "JP",
      "iata_code": "HND",
      "latitude": 35.552299,
      "longitude": 139.779999,
      "type": "large_airport"
    },
    {
      "name": "Yokota Air Base",
      "country": "JP",
      "iata_code": "OKO",
      "latitude": 35.74850082397461,
      "longitude": 139.34800720214844,
      "type": "large_airport"
    },
    {
      "name": "Naha Airport",
      "country": "JP",
      "iata_code": "OKA",
      "latitude": 26.1958007812,
      "longitude": 127.646003723,
      "type": "large_airport"
    },
    {
      "name": "Kadena Air Base",
      "country": "JP",
      "iata_code": "DNA",
      "latitude": 26.3556,
      "longitude": 127.767998,
      "type": "large_airport"
    },
    {
      "name": "Jomo Kenyatta International Airport",
      "country": "KE",
      "iata_code": "NBO",
      "latitude": -1.31923997402,
      "longitude": 36.9277992249,
      "type": "large_airport"
    },
    {
      "name": "Mombasa Moi International Airport",
      "country": "KE",
      "iata_code": "MBA",
      "latitude": -4.034830093383789,
      "longitude": 39.594200134277344,
      "type": "large_airport"
    },
    {
      "name": "Manas International Airport",
      "country": "KG",
      "iata_code": "FRU",
      "latitude": 43.0612983704,
      "longitude": 74.4776000977,
      "type": "large_airport"
    },
    {
      "name": "Phnom Penh International Airport",
      "country": "KH",
      "iata_code": "PNH",
      "latitude": 11.546600341796875,
      "longitude": 104.84400177001953,
      "type": "large_airport"
    },
    {
      "name": "Siem Reap International Airport",
      "country": "KH",
      "iata_code": "REP",
      "latitude": 13.410699844400002,
      "longitude": 103.81300354,
      "type": "large_airport"
    },
    {
      "name": "Muan International Airport",
      "country": "KR",
      "iata_code": "MWX",
      "latitude": 34.991406,
      "longitude": 126.382814,
      "type": "large_airport"
    },
    {
      "name": "Kunsan Air Base",
      "country": "KR",
      "iata_code": "KUV",
      "latitude": 35.90380096435547,
      "longitude": 126.61599731445312,
      "type": "large_airport"
    },
    {
      "name": "Jeju International Airport",
      "country": "KR",
      "iata_code": "CJU",
      "latitude": 33.51129913330078,
      "longitude": 126.49299621582031,
      "type": "large_airport"
    },
    {
      "name": "Gimhae International Airport",
      "country": "KR",
      "iata_code": "PUS",
      "latitude": 35.1795005798,
      "longitude": 128.93800354,
      "type": "large_airport"
    },
    {
      "name": "Incheon International Airport",
      "country": "KR",
      "iata_code": "ICN",
      "latitude": 37.46910095214844,
      "longitude": 126.45099639892578,
      "type": "large_airport"
    },
    {
      "name": "Osan Air Base",
      "country": "KR",
      "iata_code": "OSN",
      "latitude": 37.090599,
      "longitude": 127.029999,
      "type": "large_airport"
    },
    {
      "name": "Gimpo International Airport",
      "country": "KR",
      "iata_code": "GMP",
      "latitude": 37.5583,
      "longitude": 126.791,
      "type": "large_airport"
    },
    {
      "name": "Cheongju International Airport/Cheongju Air Base (K-59/G-513)",
      "country": "KR",
      "iata_code": "CJJ",
      "latitude": 36.717008,
      "longitude": 127.498741,
      "type": "large_airport"
    },
    {
      "name": "Kuwait International Airport",
      "country": "KW",
      "iata_code": "KWI",
      "latitude": 29.226600646972656,
      "longitude": 47.96889877319336,
      "type": "large_airport"
    },
    {
      "name": "Owen Roberts International Airport",
      "country": "KY",
      "iata_code": "GCM",
      "latitude": 19.292800903299998,
      "longitude": -81.3576965332,
      "type": "large_airport"
    },
    {
      "name": "Almaty Airport",
      "country": "KZ",
      "iata_code": "ALA",
      "latitude": 43.35210037231445,
      "longitude": 77.04049682617188,
      "type": "large_airport"
    },
    {
      "name": "Astana International Airport",
      "country": "KZ",
      "iata_code": "TSE",
      "latitude": 51.02220153808594,
      "longitude": 71.46690368652344,
      "type": "large_airport"
    },
    {
      "name": "Sary-Arka Airport",
      "country": "KZ",
      "iata_code": "KGF",
      "latitude": 49.670799255371094,
      "longitude": 73.33439636230469,
      "type": "large_airport"
    },
    {
      "name": "Beirut Rafic Hariri International Airport",
      "country": "LB",
      "iata_code": "BEY",
      "latitude": 33.820899963378906,
      "longitude": 35.488399505615234,
      "type": "large_airport"
    },
    {
      "name": "Bandaranaike International Colombo Airport",
      "country": "LK",
      "iata_code": "CMB",
      "latitude": 7.180759906768799,
      "longitude": 79.88410186767578,
      "type": "large_airport"
    },
    {
      "name": "Mattala Rajapaksa International Airport",
      "country": "LK",
      "iata_code": "HRI",
      "latitude": 6.284467,
      "longitude": 81.124128,
      "type": "large_airport"
    },
    {
      "name": "Roberts International Airport",
      "country": "LR",
      "iata_code": "ROB",
      "latitude": 6.23379,
      "longitude": -10.3623,
      "type": "large_airport"
    },
    {
      "name": "Vilnius International Airport",
      "country": "LT",
      "iata_code": "VNO",
      "latitude": 54.634102,
      "longitude": 25.285801,
      "type": "large_airport"
    },
    {
      "name": "Luxembourg-Findel International Airport",
      "country": "LU",
      "iata_code": "LUX",
      "latitude": 49.6233333,
      "longitude": 6.2044444,
      "type": "large_airport"
    },
    {
      "name": "Riga International Airport",
      "country": "LV",
      "iata_code": "RIX",
      "latitude": 56.92359924316406,
      "longitude": 23.971099853515625,
      "type": "large_airport"
    },
    {
      "name": "Tripoli International Airport",
      "country": "LY",
      "iata_code": "TIP",
      "latitude": 32.6635017395,
      "longitude": 13.1590003967,
      "type": "large_airport"
    },
    {
      "name": "Mohammed V International Airport",
      "country": "MA",
      "iata_code": "CMN",
      "latitude": 33.36750030517578,
      "longitude": -7.589970111846924,
      "type": "large_airport"
    },
    {
      "name": "Podgorica Airport",
      "country": "ME",
      "iata_code": "TGD",
      "latitude": 42.359402,
      "longitude": 19.2519,
      "type": "large_airport"
    },
    {
      "name": "Ivato Airport",
      "country": "MG",
      "iata_code": "TNR",
      "latitude": -18.7969,
      "longitude": 47.478802,
      "type": "large_airport"
    },
    {
      "name": "Skopje International Airport",
      "country": "MK",
      "iata_code": "SKP",
      "latitude": 41.961601,
      "longitude": 21.621401,
      "type": "large_airport"
    },
    {
      "name": "Modibo Keita International Airport",
      "country": "ML",
      "iata_code": "BKO",
      "latitude": 12.5335,
      "longitude": -7.94994,
      "type": "large_airport"
    },
    {
      "name": "Mandalay International Airport",
      "country": "MM",
      "iata_code": "MDL",
      "latitude": 21.702199935913086,
      "longitude": 95.97789764404297,
      "type": "large_airport"
    },
    {
      "name": "Yangon International Airport",
      "country": "MM",
      "iata_code": "RGN",
      "latitude": 16.907300949099998,
      "longitude": 96.1332015991,
      "type": "large_airport"
    },
    {
      "name": "Ulaanbaatar International Airport",
      "country": "MN",
      "iata_code": "UBN",
      "latitude": 47.646916,
      "longitude": 106.819833,
      "type": "large_airport"
    },
    {
      "name": "Buyant-Ukhaa International Airport",
      "country": "MN",
      "iata_code": "ULN",
      "latitude": 47.843102,
      "longitude": 106.766998,
      "type": "large_airport"
    },
    {
      "name": "Macau International Airport",
      "country": "MO",
      "iata_code": "MFM",
      "latitude": 22.149599,
      "longitude": 113.592003,
      "type": "large_airport"
    },
    {
      "name": "Nouakchott-Oumtounsy International Airport",
      "country": "MR",
      "iata_code": "NKC",
      "latitude": 18.31,
      "longitude": -15.9697222,
      "type": "large_airport"
    },
    {
      "name": "Malta International Airport",
      "country": "MT",
      "iata_code": "MLA",
      "latitude": 35.857498,
      "longitude": 14.4775,
      "type": "large_airport"
    },
    {
      "name": "Sir Seewoosagur Ramgoolam International Airport",
      "country": "MU",
      "iata_code": "MRU",
      "latitude": -20.430201,
      "longitude": 57.683601,
      "type": "large_airport"
    },
    {
      "name": "Malé International Airport",
      "country": "MV",
      "iata_code": "MLE",
      "latitude": 4.191830158233643,
      "longitude": 73.52909851074219,
      "type": "large_airport"
    },
    {
      "name": "General Juan N Alvarez International Airport",
      "country": "MX",
      "iata_code": "ACA",
      "latitude": 16.757099151611328,
      "longitude": -99.75399780273438,
      "type": "large_airport"
    },
    {
      "name": "Don Miguel Hidalgo Y Costilla International Airport",
      "country": "MX",
      "iata_code": "GDL",
      "latitude": 20.521799087524414,
      "longitude": -103.31099700927734,
      "type": "large_airport"
    },
    {
      "name": "General Ignacio P. Garcia International Airport",
      "country": "MX",
      "iata_code": "HMO",
      "latitude": 29.095899581900003,
      "longitude": -111.047996521,
      "type": "large_airport"
    },
    {
      "name": "Licenciado Benito Juarez International Airport",
      "country": "MX",
      "iata_code": "MEX",
      "latitude": 19.4363,
      "longitude": -99.072098,
      "type": "large_airport"
    },
    {
      "name": "General Mariano Escobedo International Airport",
      "country": "MX",
      "iata_code": "MTY",
      "latitude": 25.7784996033,
      "longitude": -100.107002258,
      "type": "large_airport"
    },
    {
      "name": "Licenciado Gustavo Díaz Ordaz International Airport",
      "country": "MX",
      "iata_code": "PVR",
      "latitude": 20.680099487304688,
      "longitude": -105.25399780273438,
      "type": "large_airport"
    },
    {
      "name": "Los Cabos International Airport",
      "country": "MX",
      "iata_code": "SJD",
      "latitude": 23.15180015563965,
      "longitude": -109.72100067138672,
      "type": "large_airport"
    },
    {
      "name": "General Abelardo L. Rodríguez International Airport",
      "country": "MX",
      "iata_code": "TIJ",
      "latitude": 32.541099548339844,
      "longitude": -116.97000122070312,
      "type": "large_airport"
    },
    {
      "name": "Cancún International Airport",
      "country": "MX",
      "iata_code": "CUN",
      "latitude": 21.036500930800003,
      "longitude": -86.8770980835,
      "type": "large_airport"
    },
    {
      "name": "Kuala Lumpur International Airport",
      "country": "MY",
      "iata_code": "KUL",
      "latitude": 2.745579957962,
      "longitude": 101.70999908447,
      "type": "large_airport"
    },
    {
      "name": "Maputo Airport",
      "country": "MZ",
      "iata_code": "MPM",
      "latitude": -25.920799,
      "longitude": 32.572601,
      "type": "large_airport"
    },
    {
      "name": "Hosea Kutako International Airport",
      "country": "NA",
      "iata_code": "WDH",
      "latitude": -22.4799,
      "longitude": 17.4709,
      "type": "large_airport"
    },
    {
      "name": "Diori Hamani International Airport",
      "country": "NE",
      "iata_code": "NIM",
      "latitude": 13.4815,
      "longitude": 2.18361,
      "type": "large_airport"
    },
    {
      "name": "Nnamdi Azikiwe International Airport",
      "country": "NG",
      "iata_code": "ABV",
      "latitude": 9.006790161132812,
      "longitude": 7.263169765472412,
      "type": "large_airport"
    },
    {
      "name": "Akwa Ibom International Airport",
      "country": "NG",
      "iata_code": "QUO",
      "latitude": 4.8725,
      "longitude": 8.093,
      "type": "large_airport"
    },
    {
      "name": "Mallam Aminu International Airport",
      "country": "NG",
      "iata_code": "KAN",
      "latitude": 12.0476,
      "longitude": 8.52462,
      "type": "large_airport"
    },
    {
      "name": "Murtala Muhammed International Airport",
      "country": "NG",
      "iata_code": "LOS",
      "latitude": 6.5773701667785645,
      "longitude": 3.321160078048706,
      "type": "large_airport"
    },
    {
      "name": "Amsterdam Airport Schiphol",
      "country": "NL",
      "iata_code": "AMS",
      "latitude": 52.308601,
      "longitude": 4.76389,
      "type": "large_airport"
    },
    {
      "name": "Eindhoven Airport",
      "country": "NL",
      "iata_code": "EIN",
      "latitude": 51.4500999451,
      "longitude": 5.37452983856,
      "type": "large_airport"
    },
    {
      "name": "Bodø Airport",
      "country": "NO",
      "iata_code": "BOO",
      "latitude": 67.26920318603516,
      "longitude": 14.365300178527832,
      "type": "large_airport"
    },
    {
      "name": "Bergen Airport Flesland",
      "country": "NO",
      "iata_code": "BGO",
      "latitude": 60.29339981,
      "longitude": 5.218140125,
      "type": "large_airport"
    },
    {
      "name": "Oslo Gardermoen Airport",
      "country": "NO",
      "iata_code": "OSL",
      "latitude": 60.193901062012,
      "longitude": 11.100399971008,
      "type": "large_airport"
    },
    {
      "name": "Tromsø Airport",
      "country": "NO",
      "iata_code": "TOS",
      "latitude": 69.68329620361328,
      "longitude": 18.918899536132812,
      "type": "large_airport"
    },
    {
      "name": "Trondheim Airport VÃ¦rnes",
      "country": "NO",
      "iata_code": "TRD",
      "latitude": 63.4578018,
      "longitude": 10.9239998,
      "type": "large_airport"
    },
    {
      "name": "Stavanger Airport Sola",
      "country": "NO",
      "iata_code": "SVG",
      "latitude": 58.876701354,
      "longitude": 5.6377801895,
      "type": "large_airport"
    },
    {
      "name": "Tribhuvan International Airport",
      "country": "NP",
      "iata_code": "KTM",
      "latitude": 27.6966,
      "longitude": 85.3591,
      "type": "large_airport"
    },
    {
      "name": "Auckland International Airport",
      "country": "NZ",
      "iata_code": "AKL",
      "latitude": -37.008098602299995,
      "longitude": 174.792007446,
      "type": "large_airport"
    },
    {
      "name": "Christchurch International Airport",
      "country": "NZ",
      "iata_code": "CHC",
      "latitude": -43.48939895629883,
      "longitude": 172.53199768066406,
      "type": "large_airport"
    },
    {
      "name": "Wellington International Airport",
      "country": "NZ",
      "iata_code": "WLG",
      "latitude": -41.3272018433,
      "longitude": 174.804992676,
      "type": "large_airport"
    },
    {
      "name": "Duqm International Airport",
      "country": "OM",
      "iata_code": "DQM",
      "latitude": 19.501944,
      "longitude": 57.634167,
      "type": "large_airport"
    },
    {
      "name": "Rustaq Airport",
      "country": "OM",
      "iata_code": "MNH",
      "latitude": 23.640556,
      "longitude": 57.4875,
      "type": "large_airport"
    },
    {
      "name": "Muscat International Airport",
      "country": "OM",
      "iata_code": "MCT",
      "latitude": 23.593299865722656,
      "longitude": 58.284400939941406,
      "type": "large_airport"
    },
    {
      "name": "Tocumen International Airport",
      "country": "PA",
      "iata_code": "PTY",
      "latitude": 9.0713596344,
      "longitude": -79.3834991455,
      "type": "large_airport"
    },
    {
      "name": "Jorge Chávez International Airport",
      "country": "PE",
      "iata_code": "LIM",
      "latitude": -12.0219,
      "longitude": -77.114305,
      "type": "large_airport"
    },
    {
      "name": "Alejandro Velasco Astete International Airport",
      "country": "PE",
      "iata_code": "CUZ",
      "latitude": -13.535699844400002,
      "longitude": -71.9387969971,
      "type": "large_airport"
    },
    {
      "name": "Faa'a International Airport",
      "country": "PF",
      "iata_code": "PPT",
      "latitude": -17.553699,
      "longitude": -149.606995,
      "type": "large_airport"
    },
    {
      "name": "Port Moresby Jacksons International Airport",
      "country": "PG",
      "iata_code": "POM",
      "latitude": -9.443380355834961,
      "longitude": 147.22000122070312,
      "type": "large_airport"
    },
    {
      "name": "Laguindingan Airport",
      "country": "PH",
      "iata_code": "CGY",
      "latitude": 8.612203,
      "longitude": 124.456496,
      "type": "large_airport"
    },
    {
      "name": "Northern Cagayan International Airport",
      "country": "PH",
      "iata_code": "Northern Cagayan International Airport",
      "latitude": 18.182388,
      "longitude": 121.745853,
      "type": "large_airport"
    },
    {
      "name": "Diosdado Macapagal International Airport",
      "country": "PH",
      "iata_code": "CRK",
      "latitude": 15.186,
      "longitude": 120.559998,
      "type": "large_airport"
    },
    {
      "name": "Ninoy Aquino International Airport",
      "country": "PH",
      "iata_code": "MNL",
      "latitude": 14.5086,
      "longitude": 121.019997,
      "type": "large_airport"
    },
    {
      "name": "Francisco Bangoy International Airport",
      "country": "PH",
      "iata_code": "DVO",
      "latitude": 7.1255202293396,
      "longitude": 125.64600372314453,
      "type": "large_airport"
    },
    {
      "name": "Mactan Cebu International Airport",
      "country": "PH",
      "iata_code": "CEB",
      "latitude": 10.307499885559,
      "longitude": 123.97899627686,
      "type": "large_airport"
    },
    {
      "name": "Islamabad International Airport",
      "country": "PK",
      "iata_code": "ISB",
      "latitude": 33.549,
      "longitude": 72.82566,
      "type": "large_airport"
    },
    {
      "name": "Sialkot Airport",
      "country": "PK",
      "iata_code": "SKT",
      "latitude": 32.5355567932,
      "longitude": 74.3638916016,
      "type": "large_airport"
    },
    {
      "name": "Gdańsk Lech Wałęsa Airport",
      "country": "PL",
      "iata_code": "GDN",
      "latitude": 54.377601623535156,
      "longitude": 18.46619987487793,
      "type": "large_airport"
    },
    {
      "name": "Kraków John Paul II International Airport",
      "country": "PL",
      "iata_code": "KRK",
      "latitude": 50.077702,
      "longitude": 19.7848,
      "type": "large_airport"
    },
    {
      "name": "Katowice International Airport",
      "country": "PL",
      "iata_code": "KTW",
      "latitude": 50.4743,
      "longitude": 19.08,
      "type": "large_airport"
    },
    {
      "name": "Modlin Airport",
      "country": "PL",
      "iata_code": "WMI",
      "latitude": 52.451099,
      "longitude": 20.6518,
      "type": "large_airport"
    },
    {
      "name": "Poznań-Åawica Airport",
      "country": "PL",
      "iata_code": "POZ",
      "latitude": 52.421001434299995,
      "longitude": 16.8262996674,
      "type": "large_airport"
    },
    {
      "name": "Warsaw Chopin Airport",
      "country": "PL",
      "iata_code": "WAW",
      "latitude": 52.1656990051,
      "longitude": 20.967100143399996,
      "type": "large_airport"
    },
    {
      "name": "Copernicus Wrocław Airport",
      "country": "PL",
      "iata_code": "WRO",
      "latitude": 51.1026992798,
      "longitude": 16.885799408,
      "type": "large_airport"
    },
    {
      "name": "Luis Munoz Marin International Airport",
      "country": "PR",
      "iata_code": "SJU",
      "latitude": 18.4393997192,
      "longitude": -66.0018005371,
      "type": "large_airport"
    },
    {
      "name": "Faro Airport",
      "country": "PT",
      "iata_code": "FAO",
      "latitude": 37.0144004822,
      "longitude": -7.96590995789,
      "type": "large_airport"
    },
    {
      "name": "Lajes Airport",
      "country": "PT",
      "iata_code": "TER",
      "latitude": 38.761799,
      "longitude": -27.090799,
      "type": "large_airport"
    },
    {
      "name": "João Paulo II Airport",
      "country": "PT",
      "iata_code": "PDL",
      "latitude": 37.7411994934,
      "longitude": -25.6979007721,
      "type": "large_airport"
    },
    {
      "name": "Francisco de Sá Carneiro Airport",
      "country": "PT",
      "iata_code": "OPO",
      "latitude": 41.2481002808,
      "longitude": -8.68138980865,
      "type": "large_airport"
    },
    {
      "name": "Humberto Delgado Airport (Lisbon Portela Airport)",
      "country": "PT",
      "iata_code": "LIS",
      "latitude": 38.7813,
      "longitude": -9.13592,
      "type": "large_airport"
    },
    {
      "name": "Hamad International Airport",
      "country": "QA",
      "iata_code": "DOH",
      "latitude": 25.273056,
      "longitude": 51.608056,
      "type": "large_airport"
    },
    {
      "name": "Tamim Airbase",
      "country": "QA",
      "iata_code": "Tamim Airbase",
      "latitude": 25.467722,
      "longitude": 50.999479,
      "type": "large_airport"
    },
    {
      "name": "Henri Coandă International Airport",
      "country": "RO",
      "iata_code": "OTP",
      "latitude": 44.5711111,
      "longitude": 26.085,
      "type": "large_airport"
    },
    {
      "name": "Belgrade Nikola Tesla Airport",
      "country": "RS",
      "iata_code": "BEG",
      "latitude": 44.8184013367,
      "longitude": 20.3090991974,
      "type": "large_airport"
    },
    {
      "name": "Lipetsk Air Base",
      "country": "RU",
      "iata_code": "Lipetsk Air Base",
      "latitude": 52.6349983215332,
      "longitude": 39.44499969482422,
      "type": "large_airport"
    },
    {
      "name": "Grozny North Airport",
      "country": "RU",
      "iata_code": "GRV",
      "latitude": 43.388302,
      "longitude": 45.698601,
      "type": "large_airport"
    },
    {
      "name": "Ukrainka Air Base",
      "country": "RU",
      "iata_code": "Ukrainka Air Base",
      "latitude": 51.169997,
      "longitude": 128.445007,
      "type": "large_airport"
    },
    {
      "name": "Olenya Air Base",
      "country": "RU",
      "iata_code": "Olenya Air Base",
      "latitude": 68.151802062988,
      "longitude": 33.463901519775,
      "type": "large_airport"
    },
    {
      "name": "Khabarovsk-Novy Airport",
      "country": "RU",
      "iata_code": "KHV",
      "latitude": 48.52799987793,
      "longitude": 135.18800354004,
      "type": "large_airport"
    },
    {
      "name": "Pulkovo Airport",
      "country": "RU",
      "iata_code": "LED",
      "latitude": 59.80030059814453,
      "longitude": 30.262500762939453,
      "type": "large_airport"
    },
    {
      "name": "Yemelyanovo Airport",
      "country": "RU",
      "iata_code": "KJA",
      "latitude": 56.172901,
      "longitude": 92.493301,
      "type": "large_airport"
    },
    {
      "name": "Tolmachevo Airport",
      "country": "RU",
      "iata_code": "OVB",
      "latitude": 55.012599945068,
      "longitude": 82.650703430176,
      "type": "large_airport"
    },
    {
      "name": "Platov International Airport",
      "country": "RU",
      "iata_code": "ROV",
      "latitude": 47.493888,
      "longitude": 39.924722,
      "type": "large_airport"
    },
    {
      "name": "Sochi International Airport",
      "country": "RU",
      "iata_code": "AER",
      "latitude": 43.449902,
      "longitude": 39.9566,
      "type": "large_airport"
    },
    {
      "name": "Koltsovo Airport",
      "country": "RU",
      "iata_code": "SVX",
      "latitude": 56.743099212646,
      "longitude": 60.802700042725,
      "type": "large_airport"
    },
    {
      "name": "Zhukovsky International Airport",
      "country": "RU",
      "iata_code": "ZIA",
      "latitude": 55.553299,
      "longitude": 38.150002,
      "type": "large_airport"
    },
    {
      "name": "Domodedovo International Airport",
      "country": "RU",
      "iata_code": "DME",
      "latitude": 55.40879821777344,
      "longitude": 37.90629959106445,
      "type": "large_airport"
    },
    {
      "name": "Sheremetyevo International Airport",
      "country": "RU",
      "iata_code": "SVO",
      "latitude": 55.972599,
      "longitude": 37.4146,
      "type": "large_airport"
    },
    {
      "name": "Vnukovo International Airport",
      "country": "RU",
      "iata_code": "VKO",
      "latitude": 55.5914993286,
      "longitude": 37.2615013123,
      "type": "large_airport"
    },
    {
      "name": "Kazan International Airport",
      "country": "RU",
      "iata_code": "KZN",
      "latitude": 55.606201171875,
      "longitude": 49.278701782227,
      "type": "large_airport"
    },
    {
      "name": "Borisoglebskoye Airport",
      "country": "RU",
      "iata_code": "Borisoglebskoye Airport",
      "latitude": 55.86669921875,
      "longitude": 49.13330078125,
      "type": "large_airport"
    },
    {
      "name": "Ufa International Airport",
      "country": "RU",
      "iata_code": "UFA",
      "latitude": 54.557498931885,
      "longitude": 55.874401092529,
      "type": "large_airport"
    },
    {
      "name": "Kurumoch International Airport",
      "country": "RU",
      "iata_code": "KUF",
      "latitude": 53.504901885986,
      "longitude": 50.16429901123,
      "type": "large_airport"
    },
    {
      "name": "Kigali International Airport",
      "country": "RW",
      "iata_code": "KGL",
      "latitude": -1.96863,
      "longitude": 30.1395,
      "type": "large_airport"
    },
    {
      "name": "King Fahd International Airport",
      "country": "SA",
      "iata_code": "DMM",
      "latitude": 26.471200942993164,
      "longitude": 49.79790115356445,
      "type": "large_airport"
    },
    {
      "name": "King Abdulaziz Air Base",
      "country": "SA",
      "iata_code": "DHA",
      "latitude": 26.265399932900003,
      "longitude": 50.152000427199994,
      "type": "large_airport"
    },
    {
      "name": "King Abdulaziz International Airport",
      "country": "SA",
      "iata_code": "JED",
      "latitude": 21.6796,
      "longitude": 39.156502,
      "type": "large_airport"
    },
    {
      "name": "Prince Mohammad Bin Abdulaziz Airport",
      "country": "SA",
      "iata_code": "MED",
      "latitude": 24.5534,
      "longitude": 39.705101,
      "type": "large_airport"
    },
    {
      "name": "King Khaled International Airport",
      "country": "SA",
      "iata_code": "RUH",
      "latitude": 24.957599639892578,
      "longitude": 46.69879913330078,
      "type": "large_airport"
    },
    {
      "name": "Financial Services business and personal loans no collateral require",
      "country": "SA",
      "iata_code": "Financial Services business and personal loans no collateral require",
      "latitude": 90,
      "longitude": 90,
      "type": "large_airport"
    },
    {
      "name": "Seychelles International Airport",
      "country": "SC",
      "iata_code": "SEZ",
      "latitude": -4.67434,
      "longitude": 55.521801,
      "type": "large_airport"
    },
    {
      "name": "Khartoum International Airport",
      "country": "SD",
      "iata_code": "KRT",
      "latitude": 15.589500427246094,
      "longitude": 32.553199768066406,
      "type": "large_airport"
    },
    {
      "name": "Gothenburg-Landvetter Airport",
      "country": "SE",
      "iata_code": "GOT",
      "latitude": 57.662799835205,
      "longitude": 12.279800415039,
      "type": "large_airport"
    },
    {
      "name": "Malmö Sturup Airport",
      "country": "SE",
      "iata_code": "MMX",
      "latitude": 55.536305364,
      "longitude": 13.376197814900001,
      "type": "large_airport"
    },
    {
      "name": "LuleÃ¥ Airport",
      "country": "SE",
      "iata_code": "LLA",
      "latitude": 65.543800354004,
      "longitude": 22.121999740601,
      "type": "large_airport"
    },
    {
      "name": "Stockholm-Arlanda Airport",
      "country": "SE",
      "iata_code": "ARN",
      "latitude": 59.651901245117,
      "longitude": 17.918600082397,
      "type": "large_airport"
    },
    {
      "name": "Singapore Changi Airport",
      "country": "SG",
      "iata_code": "SIN",
      "latitude": 1.35019,
      "longitude": 103.994003,
      "type": "large_airport"
    },
    {
      "name": "Ljubljana Jože Pučnik Airport",
      "country": "SI",
      "iata_code": "LJU",
      "latitude": 46.223701,
      "longitude": 14.4576,
      "type": "large_airport"
    },
    {
      "name": "M. R. Štefánik Airport",
      "country": "SK",
      "iata_code": "BTS",
      "latitude": 48.17020034790039,
      "longitude": 17.21269989013672,
      "type": "large_airport"
    },
    {
      "name": "Lungi International Airport",
      "country": "SL",
      "iata_code": "FNA",
      "latitude": 8.61644,
      "longitude": -13.1955,
      "type": "large_airport"
    },
    {
      "name": "Blaise Diagne International Airport",
      "country": "SN",
      "iata_code": "DSS",
      "latitude": 14.67,
      "longitude": -17.073333,
      "type": "large_airport"
    },
    {
      "name": "Léopold Sédar Senghor International Airport",
      "country": "SN",
      "iata_code": "DKR",
      "latitude": 14.739700317382812,
      "longitude": -17.49020004272461,
      "type": "large_airport"
    },
    {
      "name": "Egal International Airport",
      "country": "SO",
      "iata_code": "HGA",
      "latitude": 9.513207,
      "longitude": 44.082389,
      "type": "large_airport"
    },
    {
      "name": "Juba International Airport",
      "country": "SS",
      "iata_code": "JUB",
      "latitude": 4.87201023102,
      "longitude": 31.6011009216,
      "type": "large_airport"
    },
    {
      "name": "Monseñor Óscar Arnulfo Romero International Airport",
      "country": "SV",
      "iata_code": "SAL",
      "latitude": 13.4409,
      "longitude": -89.055702,
      "type": "large_airport"
    },
    {
      "name": "Princess Juliana International Airport",
      "country": "SX",
      "iata_code": "SXM",
      "latitude": 18.041000366200002,
      "longitude": -63.1088981628,
      "type": "large_airport"
    },
    {
      "name": "Aleppo International Airport",
      "country": "SY",
      "iata_code": "ALP",
      "latitude": 36.18069839477539,
      "longitude": 37.22439956665039,
      "type": "large_airport"
    },
    {
      "name": "Damascus International Airport",
      "country": "SY",
      "iata_code": "DAM",
      "latitude": 33.4114990234375,
      "longitude": 36.51559829711914,
      "type": "large_airport"
    },
    {
      "name": "Bassel Al-Assad International Airport",
      "country": "SY",
      "iata_code": "LTK",
      "latitude": 35.401100158691406,
      "longitude": 35.948699951171875,
      "type": "large_airport"
    },
    {
      "name": "King Mswati III International Airport",
      "country": "SZ",
      "iata_code": "SHO",
      "latitude": -26.358611,
      "longitude": 31.716944,
      "type": "large_airport"
    },
    {
      "name": "N'Djamena International Airport",
      "country": "TD",
      "iata_code": "NDJ",
      "latitude": 12.1337,
      "longitude": 15.034,
      "type": "large_airport"
    },
    {
      "name": "Don Mueang International Airport",
      "country": "TH",
      "iata_code": "DMK",
      "latitude": 13.9125995636,
      "longitude": 100.607002258,
      "type": "large_airport"
    },
    {
      "name": "Suvarnabhumi Airport",
      "country": "TH",
      "iata_code": "BKK",
      "latitude": 13.681099891662598,
      "longitude": 100.74700164794922,
      "type": "large_airport"
    },
    {
      "name": "Chiang Mai International Airport",
      "country": "TH",
      "iata_code": "CNX",
      "latitude": 18.766799926799997,
      "longitude": 98.962600708,
      "type": "large_airport"
    },
    {
      "name": "Phuket International Airport",
      "country": "TH",
      "iata_code": "HKT",
      "latitude": 8.1132,
      "longitude": 98.316902,
      "type": "large_airport"
    },
    {
      "name": "Ashgabat International Airport",
      "country": "TM",
      "iata_code": "ASB",
      "latitude": 37.986801,
      "longitude": 58.361,
      "type": "large_airport"
    },
    {
      "name": "Tunis Carthage International Airport",
      "country": "TN",
      "iata_code": "TUN",
      "latitude": 36.85100173950195,
      "longitude": 10.22719955444336,
      "type": "large_airport"
    },
    {
      "name": "Enfidha - Hammamet International Airport",
      "country": "TN",
      "iata_code": "NBE",
      "latitude": 36.075833,
      "longitude": 10.438611,
      "type": "large_airport"
    },
    {
      "name": "EsenboÄa International Airport",
      "country": "TR",
      "iata_code": "ESB",
      "latitude": 40.128101348899996,
      "longitude": 32.995098114,
      "type": "large_airport"
    },
    {
      "name": "Adana Airport",
      "country": "TR",
      "iata_code": "ADA",
      "latitude": 36.9822006226,
      "longitude": 35.280399322499996,
      "type": "large_airport"
    },
    {
      "name": "Antalya International Airport",
      "country": "TR",
      "iata_code": "AYT",
      "latitude": 36.898701,
      "longitude": 30.800501,
      "type": "large_airport"
    },
    {
      "name": "Gaziantep International Airport",
      "country": "TR",
      "iata_code": "GZT",
      "latitude": 36.9472007751,
      "longitude": 37.4786987305,
      "type": "large_airport"
    },
    {
      "name": "Atatürk International Airport",
      "country": "TR",
      "iata_code": "ISL",
      "latitude": 40.976898,
      "longitude": 28.8146,
      "type": "large_airport"
    },
    {
      "name": "Adnan Menderes International Airport",
      "country": "TR",
      "iata_code": "ADB",
      "latitude": 38.2924003601,
      "longitude": 27.156999588,
      "type": "large_airport"
    },
    {
      "name": "Dalaman International Airport",
      "country": "TR",
      "iata_code": "DLM",
      "latitude": 36.7131004333,
      "longitude": 28.7924995422,
      "type": "large_airport"
    },
    {
      "name": "Erzurum International Airport",
      "country": "TR",
      "iata_code": "ERZ",
      "latitude": 39.9565010071,
      "longitude": 41.17020034789999,
      "type": "large_airport"
    },
    {
      "name": "Trabzon International Airport",
      "country": "TR",
      "iata_code": "TZX",
      "latitude": 40.99509811401367,
      "longitude": 39.78969955444336,
      "type": "large_airport"
    },
    {
      "name": "Süleyman Demirel International Airport",
      "country": "TR",
      "iata_code": "ISE",
      "latitude": 37.8554000854,
      "longitude": 30.368400573699997,
      "type": "large_airport"
    },
    {
      "name": "Milas Bodrum International Airport",
      "country": "TR",
      "iata_code": "BJV",
      "latitude": 37.25059890749999,
      "longitude": 27.6643009186,
      "type": "large_airport"
    },
    {
      "name": "Sabiha Gökçen International Airport",
      "country": "TR",
      "iata_code": "SAW",
      "latitude": 40.898601532,
      "longitude": 29.3092002869,
      "type": "large_airport"
    },
    {
      "name": "Istanbul Airport",
      "country": "TR",
      "iata_code": "IST",
      "latitude": 41.275278,
      "longitude": 28.751944,
      "type": "large_airport"
    },
    {
      "name": "Çukurova Airport",
      "country": "TR",
      "iata_code": "Ãukurova Airport",
      "latitude": 36.895545,
      "longitude": 35.069381,
      "type": "large_airport"
    },
    {
      "name": "Kinmen Airport",
      "country": "TW",
      "iata_code": "KNH",
      "latitude": 24.4279,
      "longitude": 118.359001,
      "type": "large_airport"
    },
    {
      "name": "Kaohsiung International Airport",
      "country": "TW",
      "iata_code": "KHH",
      "latitude": 22.57710075378418,
      "longitude": 120.3499984741211,
      "type": "large_airport"
    },
    {
      "name": "Taiwan Taoyuan International Airport",
      "country": "TW",
      "iata_code": "TPE",
      "latitude": 25.0777,
      "longitude": 121.233002,
      "type": "large_airport"
    },
    {
      "name": "Julius Nyerere International Airport",
      "country": "TZ",
      "iata_code": "DAR",
      "latitude": -6.87811,
      "longitude": 39.202599,
      "type": "large_airport"
    },
    {
      "name": "Abeid Amani Karume International Airport",
      "country": "TZ",
      "iata_code": "ZNZ",
      "latitude": -6.22202,
      "longitude": 39.224899,
      "type": "large_airport"
    },
    {
      "name": "Boryspil International Airport",
      "country": "UA",
      "iata_code": "KBP",
      "latitude": 50.345001220703125,
      "longitude": 30.894699096679688,
      "type": "large_airport"
    },
    {
      "name": "Simferopol International Airport",
      "country": "UA",
      "iata_code": "SIP",
      "latitude": 45.0522,
      "longitude": 33.975101,
      "type": "large_airport"
    },
    {
      "name": "Kharkiv International Airport",
      "country": "UA",
      "iata_code": "HRK",
      "latitude": 49.924800872802734,
      "longitude": 36.290000915527344,
      "type": "large_airport"
    },
    {
      "name": "Odessa International Airport",
      "country": "UA",
      "iata_code": "ODS",
      "latitude": 46.42679977416992,
      "longitude": 30.67650032043457,
      "type": "large_airport"
    },
    {
      "name": "Entebbe International Airport",
      "country": "UG",
      "iata_code": "EBB",
      "latitude": 0.042386,
      "longitude": 32.443501,
      "type": "large_airport"
    },
    {
      "name": "Albuquerque International Sunport",
      "country": "US",
      "iata_code": "ABQ",
      "latitude": 35.040199,
      "longitude": -106.609001,
      "type": "large_airport"
    },
    {
      "name": "Joint Base Andrews",
      "country": "US",
      "iata_code": "ADW",
      "latitude": 38.810799,
      "longitude": -76.866997,
      "type": "large_airport"
    },
    {
      "name": "Fort Worth Alliance Airport",
      "country": "US",
      "iata_code": "AFW",
      "latitude": 32.9875984192,
      "longitude": -97.31880187990001,
      "type": "large_airport"
    },
    {
      "name": "Augusta Regional At Bush Field",
      "country": "US",
      "iata_code": "AGS",
      "latitude": 33.36989974975586,
      "longitude": -81.9645004272461,
      "type": "large_airport"
    },
    {
      "name": "Rick Husband Amarillo International Airport",
      "country": "US",
      "iata_code": "AMA",
      "latitude": 35.219398,
      "longitude": -101.706001,
      "type": "large_airport"
    },
    {
      "name": "Hartsfield Jackson Atlanta International Airport",
      "country": "US",
      "iata_code": "ATL",
      "latitude": 33.6367,
      "longitude": -84.428101,
      "type": "large_airport"
    },
    {
      "name": "Austin Bergstrom International Airport",
      "country": "US",
      "iata_code": "AUS",
      "latitude": 30.194499969482422,
      "longitude": -97.6698989868164,
      "type": "large_airport"
    },
    {
      "name": "Asheville Regional Airport",
      "country": "US",
      "iata_code": "AVL",
      "latitude": 35.436199,
      "longitude": -82.541801,
      "type": "large_airport"
    },
    {
      "name": "Beale Air Force Base",
      "country": "US",
      "iata_code": "BAB",
      "latitude": 39.136100769,
      "longitude": -121.43699646,
      "type": "large_airport"
    },
    {
      "name": "Barksdale Air Force Base",
      "country": "US",
      "iata_code": "BAD",
      "latitude": 32.5018005371,
      "longitude": -93.6626968384,
      "type": "large_airport"
    },
    {
      "name": "Bradley International Airport",
      "country": "US",
      "iata_code": "BDL",
      "latitude": 41.9388999939,
      "longitude": -72.68319702149999,
      "type": "large_airport"
    },
    {
      "name": "Boeing Field King County International Airport",
      "country": "US",
      "iata_code": "BFI",
      "latitude": 47.529998779296875,
      "longitude": -122.302001953125,
      "type": "large_airport"
    },
    {
      "name": "Bangor International Airport",
      "country": "US",
      "iata_code": "BGR",
      "latitude": 44.80739974975586,
      "longitude": -68.8281021118164,
      "type": "large_airport"
    },
    {
      "name": "Birmingham-Shuttlesworth International Airport",
      "country": "US",
      "iata_code": "BHM",
      "latitude": 33.56290054,
      "longitude": -86.75350189,
      "type": "large_airport"
    },
    {
      "name": "Billings Logan International Airport",
      "country": "US",
      "iata_code": "BIL",
      "latitude": 45.807701110839844,
      "longitude": -108.54299926757812,
      "type": "large_airport"
    },
    {
      "name": "Scott AFB/Midamerica Airport",
      "country": "US",
      "iata_code": "BLV",
      "latitude": 38.5452,
      "longitude": -89.835197,
      "type": "large_airport"
    },
    {
      "name": "Central Illinois Regional Airport at Bloomington-Normal",
      "country": "US",
      "iata_code": "BMI",
      "latitude": 40.47710037,
      "longitude": -88.91590118,
      "type": "large_airport"
    },
    {
      "name": "Nashville International Airport",
      "country": "US",
      "iata_code": "BNA",
      "latitude": 36.1245002746582,
      "longitude": -86.6781997680664,
      "type": "large_airport"
    },
    {
      "name": "Boise Air Terminal/Gowen Field",
      "country": "US",
      "iata_code": "BOI",
      "latitude": 43.5644,
      "longitude": -116.223,
      "type": "large_airport"
    },
    {
      "name": "General Edward Lawrence Logan International Airport",
      "country": "US",
      "iata_code": "BOS",
      "latitude": 42.36429977,
      "longitude": -71.00520325,
      "type": "large_airport"
    },
    {
      "name": "Buffalo Niagara International Airport",
      "country": "US",
      "iata_code": "BUF",
      "latitude": 42.94049835,
      "longitude": -78.73220062,
      "type": "large_airport"
    },
    {
      "name": "Baltimore/Washington International Thurgood Marshall Airport",
      "country": "US",
      "iata_code": "BWI",
      "latitude": 39.1754,
      "longitude": -76.668297,
      "type": "large_airport"
    },
    {
      "name": "Columbia Metropolitan Airport",
      "country": "US",
      "iata_code": "CAE",
      "latitude": 33.93880081176758,
      "longitude": -81.11949920654297,
      "type": "large_airport"
    },
    {
      "name": "Columbus Air Force Base",
      "country": "US",
      "iata_code": "CBM",
      "latitude": 33.6437988281,
      "longitude": -88.44380187990001,
      "type": "large_airport"
    },
    {
      "name": "Lovell Field",
      "country": "US",
      "iata_code": "CHA",
      "latitude": 35.035301208496094,
      "longitude": -85.20379638671875,
      "type": "large_airport"
    },
    {
      "name": "Charleston Air Force Base-International Airport",
      "country": "US",
      "iata_code": "CHS",
      "latitude": 32.89860153,
      "longitude": -80.04049683,
      "type": "large_airport"
    },
    {
      "name": "The Eastern Iowa Airport",
      "country": "US",
      "iata_code": "CID",
      "latitude": 41.884700775146484,
      "longitude": -91.71080017089844,
      "type": "large_airport"
    },
    {
      "name": "Cleveland Hopkins International Airport",
      "country": "US",
      "iata_code": "CLE",
      "latitude": 41.4117012024,
      "longitude": -81.8498001099,
      "type": "large_airport"
    },
    {
      "name": "Charlotte Douglas International Airport",
      "country": "US",
      "iata_code": "CLT",
      "latitude": 35.2140007019043,
      "longitude": -80.94309997558594,
      "type": "large_airport"
    },
    {
      "name": "John Glenn Columbus International Airport",
      "country": "US",
      "iata_code": "CMH",
      "latitude": 39.998001,
      "longitude": -82.891899,
      "type": "large_airport"
    },
    {
      "name": "City of Colorado Springs Municipal Airport",
      "country": "US",
      "iata_code": "COS",
      "latitude": 38.805801,
      "longitude": -104.700996,
      "type": "large_airport"
    },
    {
      "name": "Corpus Christi International Airport",
      "country": "US",
      "iata_code": "CRP",
      "latitude": 27.77039909362793,
      "longitude": -97.5011978149414,
      "type": "large_airport"
    },
    {
      "name": "Yeager Airport",
      "country": "US",
      "iata_code": "CRW",
      "latitude": 38.37310028076172,
      "longitude": -81.59320068359375,
      "type": "large_airport"
    },
    {
      "name": "Cincinnati Northern Kentucky International Airport",
      "country": "US",
      "iata_code": "CVG",
      "latitude": 39.048801,
      "longitude": -84.667801,
      "type": "large_airport"
    },
    {
      "name": "Cannon Air Force Base",
      "country": "US",
      "iata_code": "CVS",
      "latitude": 34.3828010559,
      "longitude": -103.321998596,
      "type": "large_airport"
    },
    {
      "name": "Daytona Beach International Airport",
      "country": "US",
      "iata_code": "DAB",
      "latitude": 29.179899,
      "longitude": -81.058098,
      "type": "large_airport"
    },
    {
      "name": "Dallas Love Field",
      "country": "US",
      "iata_code": "DAL",
      "latitude": 32.847099,
      "longitude": -96.851799,
      "type": "large_airport"
    },
    {
      "name": "James M Cox Dayton International Airport",
      "country": "US",
      "iata_code": "DAY",
      "latitude": 39.902400970458984,
      "longitude": -84.21939849853516,
      "type": "large_airport"
    },
    {
      "name": "Dubuque Regional Airport",
      "country": "US",
      "iata_code": "DBQ",
      "latitude": 42.40200043,
      "longitude": -90.70950317,
      "type": "large_airport"
    },
    {
      "name": "Ronald Reagan Washington National Airport",
      "country": "US",
      "iata_code": "DCA",
      "latitude": 38.8521,
      "longitude": -77.037697,
      "type": "large_airport"
    },
    {
      "name": "Denver International Airport",
      "country": "US",
      "iata_code": "DEN",
      "latitude": 39.861698150635,
      "longitude": -104.672996521,
      "type": "large_airport"
    },
    {
      "name": "Dallas Fort Worth International Airport",
      "country": "US",
      "iata_code": "DFW",
      "latitude": 32.896801,
      "longitude": -97.038002,
      "type": "large_airport"
    },
    {
      "name": "DLF Airport",
      "country": "US",
      "iata_code": "DLF",
      "latitude": 29.359501,
      "longitude": -100.778002,
      "type": "large_airport"
    },
    {
      "name": "Duluth International Airport",
      "country": "US",
      "iata_code": "DLH",
      "latitude": 46.8420982361,
      "longitude": -92.19360351559999,
      "type": "large_airport"
    },
    {
      "name": "Dover Air Force Base",
      "country": "US",
      "iata_code": "DOV",
      "latitude": 39.12950134,
      "longitude": -75.46600342,
      "type": "large_airport"
    },
    {
      "name": "Des Moines International Airport",
      "country": "US",
      "iata_code": "DSM",
      "latitude": 41.534000396728516,
      "longitude": -93.66310119628906,
      "type": "large_airport"
    },
    {
      "name": "Detroit Metropolitan Wayne County Airport",
      "country": "US",
      "iata_code": "DTW",
      "latitude": 42.212398529052734,
      "longitude": -83.35340118408203,
      "type": "large_airport"
    },
    {
      "name": "Dyess Air Force Base",
      "country": "US",
      "iata_code": "DYS",
      "latitude": 32.4207992554,
      "longitude": -99.854598999,
      "type": "large_airport"
    },
    {
      "name": "Edwards Air Force Base",
      "country": "US",
      "iata_code": "EDW",
      "latitude": 34.905399,
      "longitude": -117.884003,
      "type": "large_airport"
    },
    {
      "name": "Vance Air Force Base",
      "country": "US",
      "iata_code": "END",
      "latitude": 36.339199066199996,
      "longitude": -97.9164962769,
      "type": "large_airport"
    },